{"version": 0.6, "generator": "Overpass API 0.7.61.5 4133829e", "osm3s": {"timestamp_osm_base": "2024-03-07T12:11:03Z", "copyright": "The data included in this document is from www.openstreetmap.org. The data is made available under ODbL."}, "elements": [{"type": "node", "id": 1056955431, "lat": 56.3159775, "lon": 44.0058711, "tags": {"amenity": "bar", "description": "\u0421\u043f\u043e\u0440\u0442-\u0431\u0430\u0440"}}, {"type": "node", "id": 1634264691, "lat": 56.3239146, "lon": 44.0041087, "tags": {"alt_name": "Rock-Bar", "amenity": "bar", "email": "info@rockbar.ru", "name": "\u0420\u043e\u043a-\u0411\u0430\u0440", "phone": "+7 831 4192636", "website": "https://rockbar.ru/"}}, {"type": "node", "id": 2334439511, "lat": 56.3257384, "lon": 44.0049384, "tags": {"amenity": "bar", "email": "info@rockbar.ru", "name": "\u0414\u041a", "opening_hours": "Mo-Fr 12:00-24:00; Sa,Su 00:00-03:00,12:00-24:00", "phone": "+7 831 4192636"}}, {"type": "node", "id": 2334440210, "lat": 56.3256167, "lon": 44.0076279, "tags": {"amenity": "bar", "check_date": "2022-08-12", "name": "\u0420\u0430\u043c\u0437\u0435\u0441", "opening_hours": "12:00-22:00"}}, {"type": "node", "id": 2343624112, "lat": 56.3287427, "lon": 43.9862574, "tags": {"addr:city": "\u041d\u0438\u0436\u043d\u0438\u0439 \u041d\u043e\u0432\u0433\u043e\u0440\u043e\u0434", "addr:housenumber": "16", "addr:postcode": "603001", "addr:street": "\u041d\u0438\u0436\u043d\u0435-\u0412\u043e\u043b\u0436\u0441\u043a\u0430\u044f \u043d\u0430\u0431\u0435\u0440\u0435\u0436\u043d\u0430\u044f", "amenity": "bar", "contact:email": "mixturabar@mail.ru", "contact:phone": "+78312178090", "contact:vk": "https://vk.com/mixturabar", "contact:website": "https://mixturabar.ru/", "name": "Mixtura Bar", "opening_hours": "Mo-Th,Su 12:00-24:00; Fr-Sa 12:00-02:00", "operator": "\u0414\u0438\u0430\u043b\u043e\u0433"}}, {"type": "node", "id": 2709159573, "lat": 56.3196291, "lon": 43.9975295, "tags": {"amenity": "bar", "contact:email": "drkr@yandex.ru", "contact:phone": "+7 831 4300450", "contact:website": "https://www.drkruzhka.ru", "level": "-1", "name": "\u041f\u0440\u0430\u0433\u0430", "opening_hours": "Mo-Su 12:00-24:00", "operator": "\u041e\u041e\u041e \"\u041b\u0430\u0431\u0438\u0440\u0438\u043d\u0442\"", "operator:ref:inn": "5260052176", "outdoor_seating": "yes"}}, {"type": "node", "id": 2995726039, "lat": 56.322393, "lon": 44.004249, "tags": {"amenity": "bar", "name": "\u041a\u0438\u043e\u0441\u043a\u0411\u0430\u0440"}}, {"type": "node", "id": 4123811294, "lat": 56.3184746, "lon": 44.0259558, "tags": {"amenity": "bar", "name": "Bootlegger"}}, {"type": "node", "id": 4240915039, "lat": 56.3227223, "lon": 43.9896222, "tags": {"addr:housenumber": "45\u0410", "addr:street": "\u0418\u043b\u044c\u0438\u043d\u0441\u043a\u0430\u044f \u0443\u043b\u0438\u0446\u0430", "amenity": "bar", "cuisine": "russian;breakfast;coffee_shop;tea;sandwich;burger", "email": "billiard@bermudskiy.ru", "internet_access": "wlan", "name": "\u0411\u0435\u0440\u043c\u0443\u0434\u0441\u043a\u0438\u0439 \u0442\u0440\u0435\u0443\u0433\u043e\u043b\u044c\u043d\u0438\u043a", "name:en": "bermudskiy treugol'nik", "opening_hours": "24/7", "phone": "+7 930 2838308", "website": "https://bermudskiy.ru/"}}, {"type": "node", "id": 4240943672, "lat": 56.3272296, "lon": 43.983308, "tags": {"amenity": "bar", "name": "\u041a\u0440\u0430\u043a\u0435\u043d \u0431\u0430\u0440"}}, {"type": "node", "id": 4240943673, "lat": 56.3266006, "lon": 43.982219, "tags": {"amenity": "bar", "name": "\u041c\u0435\u0434\u043d\u044b\u0435 \u0442\u0440\u0443\u0431\u044b"}}, {"type": "node", "id": 4441012877, "lat": 56.3235, "lon": 44.027078, "tags": {"amenity": "bar", "name": "\u0418\u043c\u0440\u0443\u0441"}}, {"type": "node", "id": 4674901423, "lat": 56.3273123, "lon": 43.9823057, "tags": {"amenity": "bar", "name": "COCS"}}, {"type": "node", "id": 5140941945, "lat": 56.322063, "lon": 44.004082, "tags": {"addr:housenumber": "17/15", "addr:postcode": "603005", "addr:street": "\u0410\u043b\u0435\u043a\u0441\u0435\u0435\u0432\u0441\u043a\u0430\u044f \u0443\u043b\u0438\u0446\u0430", "amenity": "bar", "capacity": "50", "contact:email": "restoransad@mail.ru", "contact:facebook": "https://facebook.com/restoransad", "contact:instagram": "https://instagram.com/restoransad", "contact:phone": "+7(831)2229977", "contact:twitter": "https://twitter.com/@restoransad", "contact:vk": "https://vk.com/restoransad", "contact:website": "https://restoransad.ru/", "cuisine": "georgian;russian;uzbek", "name": "\u041f\u0430\u0445\u043b\u0430\u0432\u0430", "opening_hours": "Fr-Sa 12:00-02:00;Mo-Th,Su 12:00-00:00", "operator": "\u041f\u0430\u0445\u043b\u0430\u0432\u0430", "smoking": "no", "start_date": "29.09.2017"}}, {"type": "node", "id": 5144962889, "lat": 56.3302092, "lon": 43.9968669, "tags": {"amenity": "bar", "cuisine": "ribs", "name": "Ribs and Beer", "opening_hours": "Tu-Th 16:00-22:00; Fr 16:00-24:00; Sa,Su 00:00-04:00,16:00-24:00"}}, {"type": "node", "id": 5499324921, "lat": 56.3302794, "lon": 43.9975727, "tags": {"addr:housenumber": "13", "addr:street": "\u041a\u043e\u0436\u0435\u0432\u0435\u043d\u043d\u0430\u044f \u0443\u043b\u0438\u0446\u0430", "amenity": "bar", "name": "jawsspot", "website": "https://nn.jawsspot.com"}}, {"type": "node", "id": 5499325021, "lat": 56.330311, "lon": 43.9971493, "tags": {"addr:housenumber": "7", "addr:postcode": "603001", "addr:street": "\u041a\u043e\u0436\u0435\u0432\u0435\u043d\u043d\u044b\u0439 \u043f\u0435\u0440\u0435\u0443\u043b\u043e\u043a", "amenity": "bar", "name": "Rebel", "name:en": "REBEL craft beer", "name:ru": "REBEL craft beer"}}, {"type": "node", "id": 5716030522, "lat": 56.3245543, "lon": 44.0021748, "tags": {"amenity": "bar", "name": "Bar Cuba Leal"}}, {"type": "node", "id": 5728967941, "lat": 56.3252639, "lon": 44.0035496, "tags": {"amenity": "bar", "name": "Decolte"}}, {"type": "node", "id": 5942502286, "lat": 56.3307712, "lon": 44.0014767, "tags": {"amenity": "bar", "name": "Blach Ho"}}, {"type": "node", "id": 6058652985, "lat": 56.3284766, "lon": 43.9855132, "tags": {"amenity": "bar", "name": "Z\u0435\u043b\u044c\u0435", "phone": "+7 831 2300044", "website": "https://www.zeliebar.ru/"}}, {"type": "node", "id": 7879399285, "lat": 56.3246712, "lon": 44.0036635, "tags": {"amenity": "bar", "name": "\u0421\u0438\u0437\u044b\u0439 \u041e\u043b\u0435\u043d\u044c", "name:en": "Sizyolen"}}, {"type": "node", "id": 8425120543, "lat": 56.3279419, "lon": 43.9872588, "tags": {"addr:city": "\u041d\u0438\u0436\u043d\u0438\u0439 \u041d\u043e\u0432\u0433\u043e\u0440\u043e\u0434", "addr:housenumber": "26", "addr:street": "\u0420\u043e\u0436\u0434\u0435\u0441\u0442\u0432\u0435\u043d\u0441\u043a\u0430\u044f \u0443\u043b\u0438\u0446\u0430", "amenity": "bar", "contact:instagram": "https://www.instagram.com/harats.nn/", "contact:phone": "+7 (910) 143-32-33", "contact:vk": "https://vk.com/haratspubnn", "contact:website": "https://nnovgorod.harats.com", "name": "Harat`s", "opening_hours": "Fr-Sa 13:00-03:00; Mo-Th,Su 13:00-02:00"}}, {"type": "node", "id": 8474825576, "lat": 56.3232377, "lon": 44.0092432, "tags": {"addr:city": "\u041d\u0438\u0436\u043d\u0438\u0439 \u041d\u043e\u0432\u0433\u043e\u0440\u043e\u0434", "addr:housenumber": "1", "addr:street": "\u041e\u043a\u0442\u044f\u0431\u0440\u044c\u0441\u043a\u0430\u044f \u0443\u043b\u0438\u0446\u0430", "amenity": "bar", "contact:instagram": "https://www.instagram.com/vinedobar/", "name": "Vinedo", "opening_hours": "Mo-Su 12:00-00:00", "phone": "+78314109998", "website": "https://vinedo.ru/"}}, {"type": "node", "id": 8748386418, "lat": 56.3292259, "lon": 43.9909873, "tags": {"amenity": "bar", "check_date": "2022-05-21", "name": "\u0413\u0430\u0441\u0442\u0440\u043e\u043f\u0430\u0431 \"\u0413\u043e\u0440\u044c\u043a\u043e\u0432\u0441\u043a\u0430\u044f \u043f\u0438\u0432\u043e\u0432\u0430\u0440\u043d\u044f\"", "opening_hours": "Su-Th 12:00-24:00, Fr,Sa 12:00-01:00"}}, {"type": "node", "id": 9310546968, "lat": 56.3269798, "lon": 43.9951281, "tags": {"amenity": "bar", "name": "\u0428\u0442\u0430\u0431 The Village"}}, {"type": "node", "id": 9678479917, "lat": 56.3281031, "lon": 44.0172445, "tags": {"amenity": "bar", "name": "\u0425\u043c\u0435\u043b\u044c"}}, {"type": "node", "id": 10576711286, "lat": 56.3170499, "lon": 43.9985329, "tags": {"amenity": "bar", "contact:phone": "+7 831 2828208", "contact:website": "https://www.budapestnn.com", "name": "\u0411\u0443\u0434\u0430\u043f\u0435\u0448\u0442", "opening_hours": "Mo-Su 12:00-00:00"}}, {"type": "node", "id": 10576732430, "lat": 56.322471, "lon": 44.007213, "tags": {"amenity": "bar", "contact:email": "info@marguletsbar.ru", "contact:phone": "+7 831 2302930", "name": "Margulets", "opening_hours": "Mo-Su 10:00-00:00"}}, {"type": "node", "id": 10576738874, "lat": 56.3295075, "lon": 44.0102837, "tags": {"amenity": "bar", "contact:email": "mail@aviator.bar", "contact:phone": "+7 930 2060757", "name": "\u0410\u0432\u0438\u0430\u0442\u043e\u0440", "opening_hours": "Fr-Sa 17:00-02:00; We-Th,Su 17:00-01:00"}}, {"type": "node", "id": 10576738879, "lat": 56.31819, "lon": 43.996992, "tags": {"amenity": "bar", "contact:email": "gellert-bar.nn@mail.ru", "contact:phone": "+7 950 6129287", "contact:website": "https://gellert.ru", "name": "Gellert", "opening_hours": "Fr-Sa 12:00-02:00; Mo-Th,Su 12:00-00:00"}}, {"type": "node", "id": 10967655307, "lat": 56.3229631, "lon": 44.0044439, "tags": {"amenity": "bar", "name": "\u041e\u043e", "name:en": "\u00d6\u00f6"}}, {"type": "node", "id": 11482378458, "lat": 56.324624, "lon": 44.010042, "tags": {"amenity": "bar", "contact:phone": "+7 920 0077700", "contact:website": "https://lv-nn.com/bar", "name": "\u041b\u0430\u0431\u043e\u0440\u0430\u0442\u043e\u0440\u0438\u044f \u0412\u043a\u0443\u0441\u0430", "opening_hours": "Fr-Sa 12:00-01:00; Mo-Th,Su 12:00-00:00"}}, {"type": "node", "id": 11681910510, "lat": 56.3206702, "lon": 43.9990944, "tags": {"amenity": "bar", "name": "\u0422\u0438\u0445\u0443\u0430\u043d\u0430"}}]}